{
"type": "FeatureCollection",
"name": "安溪县乡镇",
"crs": { "type": "name", "properties": { "name": "urn:ogc:def:crs:OGC:1.3:CRS84" } },
"features": [
{ "type": "Feature", "properties": { "Name": "剑斗镇", "description": null, "timestamp": null, "begin": null, "end": null, "altitudeMode": null, "tessellate": -1, "extrude": 0, "visibility": -1, "drawOrder": null, "icon": null }, "geometry": { "type": "Point", "coordinates": [ 117.92888, 25.32374, 0.0 ] } },
{ "type": "Feature", "properties": { "Name": "感德镇", "description": null, "timestamp": null, "begin": null, "end": null, "altitudeMode": null, "tessellate": -1, "extrude": 0, "visibility": -1, "drawOrder": null, "icon": null }, "geometry": { "type": "Point", "coordinates": [ 117.84944, 25.30392, 0.0 ] } },
{ "type": "Feature", "properties": { "Name": "芦田镇", "description": null, "timestamp": null, "begin": null, "end": null, "altitudeMode": null, "tessellate": -1, "extrude": 0, "visibility": -1, "drawOrder": null, "icon": null }, "geometry": { "type": "Point", "coordinates": [ 117.82648, 25.02462, 0.0 ] } },
{ "type": "Feature", "properties": { "Name": "西坪镇", "description": null, "timestamp": null, "begin": null, "end": null, "altitudeMode": null, "tessellate": -1, "extrude": 0, "visibility": -1, "drawOrder": null, "icon": null }, "geometry": { "type": "Point", "coordinates": [ 117.93956, 25.02596, 0.0 ] } },
{ "type": "Feature", "properties": { "Name": "官桥镇", "description": null, "timestamp": null, "begin": null, "end": null, "altitudeMode": null, "tessellate": -1, "extrude": 0, "visibility": -1, "drawOrder": null, "icon": null }, "geometry": { "type": "Point", "coordinates": [ 118.08964, 25.02304, 0.0 ] } },
{ "type": "Feature", "properties": { "Name": "虎邱镇", "description": null, "timestamp": null, "begin": null, "end": null, "altitudeMode": null, "tessellate": -1, "extrude": 0, "visibility": -1, "drawOrder": null, "icon": null }, "geometry": { "type": "Point", "coordinates": [ 117.99527, 25.00681, 0.0 ] } },
{ "type": "Feature", "properties": { "Name": "龙门镇", "description": null, "timestamp": null, "begin": null, "end": null, "altitudeMode": null, "tessellate": -1, "extrude": 0, "visibility": -1, "drawOrder": null, "icon": null }, "geometry": { "type": "Point", "coordinates": [ 118.09072, 24.95905, 0.0 ] } },
{ "type": "Feature", "properties": { "Name": "湖头镇", "description": null, "timestamp": null, "begin": null, "end": null, "altitudeMode": null, "tessellate": -1, "extrude": 0, "visibility": -1, "drawOrder": null, "icon": null }, "geometry": { "type": "Point", "coordinates": [ 118.03801, 25.23379, 0.0 ] } },
{ "type": "Feature", "properties": { "Name": "金谷镇", "description": null, "timestamp": null, "begin": null, "end": null, "altitudeMode": null, "tessellate": -1, "extrude": 0, "visibility": -1, "drawOrder": null, "icon": null }, "geometry": { "type": "Point", "coordinates": [ 118.11596, 25.17362, 0.0 ] } },
{ "type": "Feature", "properties": { "Name": "蓬莱镇", "description": null, "timestamp": null, "begin": null, "end": null, "altitudeMode": null, "tessellate": -1, "extrude": 0, "visibility": -1, "drawOrder": null, "icon": null }, "geometry": { "type": "Point", "coordinates": [ 118.09156, 25.13247, 0.0 ] } },
{ "type": "Feature", "properties": { "Name": "魁斗镇", "description": null, "timestamp": null, "begin": null, "end": null, "altitudeMode": null, "tessellate": -1, "extrude": 0, "visibility": -1, "drawOrder": null, "icon": null }, "geometry": { "type": "Point", "coordinates": [ 118.15639, 25.13459, 0.0 ] } },
{ "type": "Feature", "properties": { "Name": "城厢镇", "description": null, "timestamp": null, "begin": null, "end": null, "altitudeMode": null, "tessellate": -1, "extrude": 0, "visibility": -1, "drawOrder": null, "icon": null }, "geometry": { "type": "Point", "coordinates": [ 118.1936, 25.04301, 0.0 ] } },
{ "type": "Feature", "properties": { "Name": "凤城镇", "description": null, "timestamp": null, "begin": null, "end": null, "altitudeMode": null, "tessellate": -1, "extrude": 0, "visibility": -1, "drawOrder": null, "icon": null }, "geometry": { "type": "Point", "coordinates": [ 118.18239, 25.05946, 0.0 ] } },
{ "type": "Feature", "properties": { "Name": "大坪乡", "description": null, "timestamp": null, "begin": null, "end": null, "altitudeMode": null, "tessellate": -1, "extrude": 0, "visibility": -1, "drawOrder": null, "icon": null }, "geometry": { "type": "Point", "coordinates": [ 117.96918, 24.88914, 0.0 ] } },
{ "type": "Feature", "properties": { "Name": "湖上乡", "description": null, "timestamp": null, "begin": null, "end": null, "altitudeMode": null, "tessellate": -1, "extrude": 0, "visibility": -1, "drawOrder": null, "icon": null }, "geometry": { "type": "Point", "coordinates": [ 117.9778, 25.25684, 0.0 ] } },
{ "type": "Feature", "properties": { "Name": "桃舟乡", "description": null, "timestamp": null, "begin": null, "end": null, "altitudeMode": null, "tessellate": -1, "extrude": 0, "visibility": -1, "drawOrder": null, "icon": null }, "geometry": { "type": "Point", "coordinates": [ 117.7704, 25.3546, 0.0 ] } },
{ "type": "Feature", "properties": { "Name": "长坑乡", "description": null, "timestamp": null, "begin": null, "end": null, "altitudeMode": null, "tessellate": -1, "extrude": 0, "visibility": -1, "drawOrder": null, "icon": null }, "geometry": { "type": "Point", "coordinates": [ 117.87271, 25.19963, 0.0 ] } },
{ "type": "Feature", "properties": { "Name": "尚卿乡", "description": null, "timestamp": null, "begin": null, "end": null, "altitudeMode": null, "tessellate": -1, "extrude": 0, "visibility": -1, "drawOrder": null, "icon": null }, "geometry": { "type": "Point", "coordinates": [ 117.96008, 25.11106, 0.0 ] } },
{ "type": "Feature", "properties": { "Name": "蓝田乡", "description": null, "timestamp": null, "begin": null, "end": null, "altitudeMode": null, "tessellate": -1, "extrude": 0, "visibility": -1, "drawOrder": null, "icon": null }, "geometry": { "type": "Point", "coordinates": [ 117.87833, 25.13221, 0.0 ] } },
{ "type": "Feature", "properties": { "Name": "祥华乡", "description": null, "timestamp": null, "begin": null, "end": null, "altitudeMode": null, "tessellate": -1, "extrude": 0, "visibility": -1, "drawOrder": null, "icon": null }, "geometry": { "type": "Point", "coordinates": [ 117.73898, 25.19371, 0.0 ] } },
{ "type": "Feature", "properties": { "Name": "福田乡", "description": null, "timestamp": null, "begin": null, "end": null, "altitudeMode": null, "tessellate": -1, "extrude": 0, "visibility": -1, "drawOrder": null, "icon": null }, "geometry": { "type": "Point", "coordinates": [ 117.61315, 25.26388, 0.0 ] } },
{ "type": "Feature", "properties": { "Name": "龙涓乡", "description": null, "timestamp": null, "begin": null, "end": null, "altitudeMode": null, "tessellate": -1, "extrude": 0, "visibility": -1, "drawOrder": null, "icon": null }, "geometry": { "type": "Point", "coordinates": [ 117.73104, 24.9654, 0.0 ] } },
{ "type": "Feature", "properties": { "Name": "参内乡", "description": null, "timestamp": null, "begin": null, "end": null, "altitudeMode": null, "tessellate": -1, "extrude": 0, "visibility": -1, "drawOrder": null, "icon": null }, "geometry": { "type": "Point", "coordinates": [ 118.21377, 25.07222, 0.0 ] } },
{ "type": "Feature", "properties": { "Name": "白濑乡", "description": null, "timestamp": null, "begin": null, "end": null, "altitudeMode": null, "tessellate": -1, "extrude": 0, "visibility": -1, "drawOrder": null, "icon": null }, "geometry": { "type": "Point", "coordinates": [ 118.02763, 25.27618, 0.0 ] } }
]
}
